{"type":"FeatureCollection","features":[{"type":"Feature","properties":{"name":"Col des Montets","country":"France","region":"Haute-Savoie"},"geometry":{"coordinates":[6.9236322215912764,46.003917770148604],"type":"Point"},"id":0},{"type":"Feature","properties":{"name":"Col des Aravis","country":"France","region":"Haute-Savoie"},"geometry":{"coordinates":[6.464866787779897,45.87227042143746],"type":"Point"},"id":1},{"type":"Feature","properties":{"name":"Col de la Colombière","country":"France","region":"Haute-Savoie"},"geometry":{"coordinates":[6.475388563615809,45.99213371239347],"type":"Point"},"id":2},{"type":"Feature","properties":{"name":"Mont Ventoux","country":"France","region":"Vaucluse"},"geometry":{"coordinates":[5.279699165740993,44.1743669306438],"type":"Point"},"id":3},{"type":"Feature","properties":{"name":"Col du Grand-Saint-Bernard","country":"Switzerland","region":"Valais"},"geometry":{"coordinates":[7.170371395366942,45.869068746768306],"type":"Point"},"id":4},{"type":"Feature","properties":{"name":"Col du Petit-Saint-Bernard","country":"France","region":"Savoie"},"geometry":{"coordinates":[6.882939674190055,45.679247155904164],"type":"Point"},"id":5},{"type":"Feature","properties":{"name":"Vojak","country":"Croatia","region":"Primorje-Gorski Kotar"},"geometry":{"coordinates":[14.202708516898383,45.2863874242681],"type":"Point"},"id":6},{"type":"Feature","properties":{"name":"Vršič Pass","country":"Slovenia","region":"Bovec"},"geometry":{"coordinates":[13.743586055012855,46.43457952336925],"type":"Point"},"id":7},{"type":"Feature","properties":{"name":"Passo Fedaia","country":"Italy","region":"Veneto"},"geometry":{"coordinates":[11.887710282467992,46.45393288727135],"type":"Point"},"id":8},{"type":"Feature","properties":{"name":"Passo Falzarego","country":"Italy","region":"Veneto"},"geometry":{"coordinates":[12.009167603458053,46.518793673288826],"type":"Point"},"id":9},{"type":"Feature","properties":{"name":"Passo Pordoi","country":"Italy","region":"Trentino"},"geometry":{"coordinates":[11.81219763297355,46.48754937626333],"type":"Point"},"id":10},{"type":"Feature","properties":{"name":"Passo Gardena","country":"Italy","region":"Trentino"},"geometry":{"coordinates":[11.808389145344819,46.549812996423896],"type":"Point"},"id":11},{"type":"Feature","properties":{"name":"Passo Campolongo","country":"Italy","region":"Veneto"},"geometry":{"coordinates":[11.87237048007566,46.513857263592485],"type":"Point"},"id":12},{"type":"Feature","properties":{"name":"Passo di Sella","country":"Italy","region":"Trentino"},"geometry":{"coordinates":[11.767332027975556,46.50807509125062],"type":"Point"},"id":13},{"type":"Feature","properties":{"name":"Passo Staulanza","country":"Italy","region":"Veneto"},"geometry":{"coordinates":[12.10450299929741,46.420698775953525],"type":"Point"},"id":14},{"type":"Feature","properties":{"name":"Colle del Nivolet"},"geometry":{"coordinates":[7.142322021246343,45.47920733731016],"type":"Point"},"id":15},{"type":"Feature","properties":{"name":"Col de la Forclaz","country":"Switzerland","region":"Valais"},"geometry":{"coordinates":[7.00138094332965,46.05774554559051],"type":"Point"},"id":16},{"type":"Feature","properties":{"name":"Col du Joly","country":"France","region":"Haute-Savoie"},"geometry":{"coordinates":[6.674014940290476,45.78391317163155],"type":"Point"},"id":17},{"type":"Feature","properties":{"name":"Col des Saisies","country":"France","region":"Savoie"},"geometry":{"coordinates":[6.533362763730395,45.761292893699874],"type":"Point"},"id":18},{"type":"Feature","properties":{"name":"Col de la Croix Fry","country":"France","region":"Haute-Savoie"},"geometry":{"coordinates":[6.406051633034849,45.877257613417925],"type":"Point"},"id":19},{"type":"Feature","properties":{"name":"Col des Marais","country":"France","region":"Haute-Savoie"},"geometry":{"coordinates":[6.33428221940477,45.8242889666395],"type":"Point"},"id":20},{"type":"Feature","properties":{"name":"Col de Pierre Carrée","country":"France","region":"Haute-Savoie"},"geometry":{"coordinates":[6.678271705983946,46.01185346813821],"type":"Point"},"id":21},{"type":"Feature","properties":{"name":"Col de Romme","country":"France","region":"Haute-Savoie"},"geometry":{"coordinates":[6.574606822937312,46.030041590820616],"type":"Point"},"id":22},{"type":"Feature","properties":{"name":"Col de l'Iseran","country":"France","region":"Savoie"},"geometry":{"coordinates":[7.030840570853542,45.41711651982595],"type":"Point"},"id":23},{"type":"Feature","properties":{"name":"Col de la Forclaz de Montmin","country":"France","region":"Haute-Savoie"},"geometry":{"coordinates":[6.245056397920109,45.80825097155716],"type":"Point"},"id":24},{"type":"Feature","properties":{"name":"Col de Joux Plane","country":"France","region":"Haute-Savoie"},"geometry":{"coordinates":[6.712907637326737,46.12961800630069],"type":"Point"},"id":25},{"type":"Feature","properties":{"name":"Col des Annes","country":"France","region":"Haute-Savoie"},"geometry":{"coordinates":[6.524214170805465,45.97010912882854],"type":"Point"},"id":26},{"type":"Feature","properties":{"name":"Col de la Faucille","country":"France","region":"Ain"},"geometry":{"coordinates":[6.020263412241661,46.36876896418141],"type":"Point"},"id":27},{"type":"Feature","properties":{"name":"Col de Magnard","country":"France","region":"Jura"},"geometry":{"coordinates":[5.9574140369085455,46.375191569596524],"type":"Point"},"id":28},{"type":"Feature","properties":{"name":"Col d'Allos","country":"France","region":"Alpes-de-Haute-Provence"},"geometry":{"coordinates":[6.593704974057289,44.29720700272401],"type":"Point"},"id":29},{"type":"Feature","properties":{"name":"Col du Vam","country":"Netherlands","region":"Netherlands"},"geometry":{"coordinates":[6.524492783914326,52.79110773175131],"type":"Point"},"id":30},{"type":"Feature","properties":{"name":"Bealach na Bà","country":"United Kingdom","region":"Scotland"},"geometry":{"coordinates":[-5.708365929620953,57.4189287000996],"type":"Point"},"id":31},{"type":"Feature","properties":{"name":"Mam Tor","country":"United Kingdom","region":"England"},"geometry":{"coordinates":[-1.8136864652726388,53.34769946820799],"type":"Point"},"id":32},{"type":"Feature","properties":{"name":"Winnats Pass","country":"United Kingdom","region":"England"},"geometry":{"coordinates":[-1.8098623736083255,53.34139771691483],"type":"Point"},"id":33},{"type":"Feature","properties":{"name":"Cairnwell Pass","country":"United Kingdom","region":"Scotland"},"geometry":{"coordinates":[-3.4107177626590897,56.880944286198655],"type":"Point"},"id":34},{"type":"Feature","properties":{"name":"Grosse Scheidegg","country":"Switzerland","region":"Bern"},"geometry":{"coordinates":[8.101878811369119,46.65573556805617],"type":"Point"},"id":35},{"type":"Feature","properties":{"name":"Grimselpass","country":"Switzerland","region":"Valais"},"geometry":{"coordinates":[8.336681995194937,46.56117898187114],"type":"Point"},"id":36},{"type":"Feature","properties":{"name":"Furkapass","country":"Switzerland","region":"Valais"},"geometry":{"coordinates":[8.415165081786256,46.57268827438995],"type":"Point"},"id":37},{"type":"Feature","properties":{"name":"Nufenenpass","country":"Switzerland","region":"Valais"},"geometry":{"coordinates":[8.38782564303554,46.47712926574681],"type":"Point"},"id":38},{"type":"Feature","properties":{"name":"Passo del San Gottardo","country":"Switzerland","region":"Ticino"},"geometry":{"coordinates":[8.562389281751535,46.55899515428305],"type":"Point"},"id":39},{"type":"Feature","properties":{"name":"Sustenpass","country":"Switzerland","region":"Bern"},"geometry":{"coordinates":[8.446689157209477,46.72917527220517],"type":"Point"},"id":40},{"type":"Feature","properties":{"name":"Reschenpass","country":"Italy","region":"Trentino"},"geometry":{"coordinates":[10.510238739973857,46.83434697881714],"type":"Point"},"id":41},{"type":"Feature","properties":{"name":"Timmelsjoch/Passo Rombo","country":"Italy","region":"Trentino"},"geometry":{"coordinates":[11.097438209031367,46.90532306055053],"type":"Point"},"id":42},{"type":"Feature","properties":{"name":"Brennerpass","country":"Austria","region":"Tirol"},"geometry":{"coordinates":[11.506700171490678,47.00739874587444],"type":"Point"},"id":43},{"type":"Feature","properties":{"name":"Passo Cento Croci","country":"Italy","region":"Liguria"},"geometry":{"coordinates":[9.623331760195498,44.421658068131904],"type":"Point"},"id":44},{"type":"Feature","properties":{"name":"Collado Calderón","country":"Spain","region":"Aragon"},"geometry":{"coordinates":[-1.142807497233946,40.016304605405],"type":"Point"},"id":46},{"type":"Feature","properties":{"name":"Col du Tourmalet","country":"France","region":"Hautes-Pyrénées"},"geometry":{"coordinates":[0.1452782283552949,42.90839922631707],"type":"Point"},"id":47},{"type":"Feature","properties":{"name":"Col du Galibier","country":"France","region":"Savoie"},"geometry":{"coordinates":[6.407856778804444,45.064159636889],"type":"Point"},"id":47},{"type":"Feature","properties":{"name":"Col d'Aspin","country":"France","region":"Hautes-Pyrénées"},"geometry":{"coordinates":[0.3273825664395247,42.9423325691032],"type":"Point"},"id":49},{"type":"Feature","properties":{"name":"Col du Télégraphe","country":"France","region":"Savoie"},"geometry":{"coordinates":[6.444614660651297,45.202700287221205],"type":"Point"},"id":49},{"type":"Feature","properties":{"name":"Col d'Izoard","country":"France","region":"Hautes-Alpes"},"geometry":{"coordinates":[6.735042117709071,44.82002587252927],"type":"Point"},"id":50},{"type":"Feature","properties":{"name":"Passo dello Stelvio","country":"Italy","region":"Trentino"},"geometry":{"coordinates":[10.453101677509665,46.52862645412702],"type":"Point"},"id":51},{"type":"Feature","properties":{"name":"Passo Gavia","country":"Italy","region":"Lombardia"},"geometry":{"coordinates":[10.487393930371411,46.34347710425391],"type":"Point"},"id":52},{"type":"Feature","properties":{"name":"Forcola di Livigno","country":"Italy","region":"Lombardia"},"geometry":{"coordinates":[10.056190195270148,46.440964685567394],"type":"Point"},"id":53},{"type":"Feature","properties":{"name":"Col du Sanetsch","country":"Switzerland","region":"Valais"},"geometry":{"coordinates":[7.286234559221896,46.33157551524661],"type":"Point"},"id":54},{"type":"Feature","properties":{"name":"Cime de la Bonette","country":"France","region":"Alpes-Maritimes"},"geometry":{"coordinates":[6.807431743312662,44.32051081446758],"type":"Point"},"id":55},{"type":"Feature","properties":{"name":"L'Alpe d'Huez","country":"France","region":"Isère"},"geometry":{"coordinates":[6.064830435494088,45.0904551318327],"type":"Point"},"id":56},{"type":"Feature","properties":{"name":"Colle del Sommeiller"},"geometry":{"coordinates":[6.844403897899639,45.1340241683061],"type":"Point"},"id":57},{"type":"Feature","properties":{"name":"Cormet de Roseland","country":"France","region":"Savoie"},"geometry":{"coordinates":[6.6905573191234,45.69131359472243],"type":"Point"},"id":58},{"type":"Feature","properties":{"name":"North Yungas Road (Death Road)","country":"Bolivia","region":"Bolivia"},"geometry":{"coordinates":[-67.82711405738266,-16.28941598263718],"type":"Point"},"id":60},{"type":"Feature","properties":{"name":"Col de Tende","country":"France","region":"Alpes-Maritimes"},"geometry":{"coordinates":[7.561879644149627,44.149682411016386],"type":"Point"},"id":60},{"type":"Feature","properties":{"name":"Col de la Combarde","country":"France","region":"Alpes-Maritimes"},"geometry":{"coordinates":[7.150097722299336,44.20266485298194],"type":"Point"},"id":61},{"type":"Feature","properties":{"name":"Col de la Madeleine","country":"France","region":"Savoie"},"geometry":{"coordinates":[6.375510638561622,45.43495468655064],"type":"Point"},"id":62},{"type":"Feature","properties":{"name":"Passo del Tonale","country":"Italy","region":"Lombardia"},"geometry":{"coordinates":[10.581847211988133,46.25800699772597],"type":"Point"},"id":63},{"type":"Feature","properties":{"name":"Penserjoch","country":"Italy","region":"Trentino"},"geometry":{"coordinates":[11.441254353087515,46.81877703003033],"type":"Point"},"id":64},{"type":"Feature","properties":{"name":"Wurzenpass","country":"Austria","region":"Carinthia"},"geometry":{"coordinates":[13.751611456939116,46.518654663126284],"type":"Point"},"id":65},{"type":"Feature","properties":{"name":"Moosalp","country":"Switzerland","region":"Valais"},"geometry":{"coordinates":[7.829512528874716,46.25131621811494],"type":"Point"},"id":66},{"type":"Feature","properties":{"name":"Simplonpass","country":"Switzerland","region":"Valais"},"geometry":{"coordinates":[8.032460360924887,46.25075536518813],"type":"Point"},"id":67},{"type":"Feature","properties":{"name":"Col d'Aubisque","country":"France","region":"Pyrénées-Atlantiques"},"geometry":{"coordinates":[-0.3397790982926949,42.976586342516185],"type":"Point"},"id":69},{"type":"Feature","properties":{"name":"Mount Wuling","country":"Taiwan","region":"Taiwan"},"geometry":{"coordinates":[121.27583156332389,24.137210919495956],"type":"Point"},"id":70},{"type":"Feature","properties":{"name":"Teide","country":"Portugal","region":"Islas Canarias"},"geometry":{"coordinates":[-16.62504511247562,28.25364775022537],"type":"Point"},"id":71},{"type":"Feature","properties":{"name":"Mount Washington","country":"United States","region":"New Hampshire"},"geometry":{"coordinates":[-71.30339907273311,44.26982944330817],"type":"Point"},"id":72},{"type":"Feature","properties":{"name":"Passo del Mortirolo","country":"Italy","region":"Lombardia"},"geometry":{"coordinates":[10.299092462832874,46.24811541117441],"type":"Point"},"id":72},{"type":"Feature","properties":{"name":"Monte Zoncolan","country":"Italy","region":"Friuli"},"geometry":{"coordinates":[12.92683962974337,46.501800552676656],"type":"Point"},"id":73},{"type":"Feature","properties":{"name":"Koppenburg","country":"Belgium","region":"Belgium"},"geometry":{"coordinates":[3.579850873332333,50.81077044266101],"type":"Point"},"id":75},{"type":"Feature","properties":{"name":"Hardknott Pass","country":"United Kingdom","region":"England"},"geometry":{"coordinates":[-3.1848862497280095,54.40281253335607],"type":"Point"},"id":76},{"type":"Feature","properties":{"name":"Colle San Carlo","country":"Italy","region":"Valle d'Aosta"},"geometry":{"coordinates":[6.98937083589351,45.7429347290813],"type":"Point"},"id":76},{"type":"Feature","properties":{"name":"Col du Chaussy","country":"France","region":"Savoie"},"geometry":{"coordinates":[6.356450004301422,45.34386918596965],"type":"Point"},"id":77},{"type":"Feature","properties":{"name":"Lacets de Montvernier","country":"France","region":"Savoie"},"geometry":{"coordinates":[6.345488497993017,45.32029440874692],"type":"Point"},"id":78},{"type":"Feature","properties":{"name":"Col de la Croix de la Serra","country":"France","region":"Jura"},"geometry":{"coordinates":[5.799544313927754,46.28864149316411],"type":"Point"},"id":79},{"type":"Feature","properties":{"name":"Javalambre","country":"Spain","region":"Aragon"},"geometry":{"coordinates":[-1.0178631179452395,40.11547137198005],"type":"Point"},"id":81},{"type":"Feature","properties":{"name":"Passo del Diavolo","country":"Italy","region":"Abruzzo"},"geometry":{"coordinates":[13.746136764965314,41.87579137914909],"type":"Point"},"id":82},{"type":"Feature","properties":{"name":"Passo della Sella","country":"Italy","region":"Lazio"},"geometry":{"coordinates":[13.21062579119507,41.82801630914926],"type":"Point"},"id":83},{"type":"Feature","properties":{"name":"Passo delle Crocelle","country":"Italy","region":"Basilicata"},"geometry":{"coordinates":[15.563740416398616,40.7909370444373],"type":"Point"},"id":84},{"type":"Feature","properties":{"name":"Colle dell'Impiso","country":"Italy","region":"Basilicata"},"geometry":{"coordinates":[16.161680507457504,39.934053763362925],"type":"Point"},"id":85},{"type":"Feature","properties":{"name":"Col de la Rochette","country":"France","region":"Ain"},"geometry":{"coordinates":[5.6395039640632945,45.984107226510076],"type":"Point"},"id":85},{"type":"Feature","properties":{"name":"Col de Cuvillat","country":"France","region":"Ain"},"geometry":{"coordinates":[5.621997617053751,46.03215325589244],"type":"Point"},"id":86},{"type":"Feature","properties":{"name":"Col de Richemond","country":"France","region":"Ain"},"geometry":{"coordinates":[5.7484120916145685,46.008251051718986],"type":"Point"},"id":87},{"type":"Feature","properties":{"name":"Col de la Biche","country":"France","region":"Ain"},"geometry":{"coordinates":[5.748948112516018,45.952446605909245],"type":"Point"},"id":88},{"type":"Feature","properties":{"name":"Col du Grand Colombier","country":"France","region":"Ain"},"geometry":{"coordinates":[5.761641940187133,45.90345566818266],"type":"Point"},"id":89},{"type":"Feature","properties":{"name":"Col de L'Arpettaz","country":"France","region":"Savoie"},"geometry":{"coordinates":[6.4336163045096555,45.79688291262019],"type":"Point"},"id":90},{"type":"Feature","properties":{"name":"Col de l'Encrenaz","country":"France","region":"Haute-Savoie"},"geometry":{"coordinates":[6.633669987082413,46.17270779209642],"type":"Point"},"id":91},{"type":"Feature","properties":{"name":"Col de la Ramaz","country":"France","region":"Haute-Savoie"},"geometry":{"coordinates":[6.580639457541423,46.15932300641626],"type":"Point"},"id":92},{"type":"Feature","properties":{"name":"Col de Jambaz","country":"France","region":"Haute-Savoie"},"geometry":{"coordinates":[6.520041114346526,46.23509592374094],"type":"Point"},"id":93},{"type":"Feature","properties":{"name":"Col de la Joux Verte","country":"France","region":"Haute-Savoie"},"geometry":{"coordinates":[6.75926098885364,46.19997607157015],"type":"Point"},"id":94},{"type":"Feature","properties":{"name":"Col de Bassachaux","country":"France","region":"Haute-Savoie"},"geometry":{"coordinates":[6.772205926573463,46.222505755785534],"type":"Point"},"id":95},{"type":"Feature","properties":{"name":"Col du Corbier","country":"France","region":"Haute-Savoie"},"geometry":{"coordinates":[6.645256181220532,46.28415670104627],"type":"Point"},"id":96},{"type":"Feature","properties":{"name":"Col du Grand Taillet","country":"France","region":"Haute-Savoie"},"geometry":{"coordinates":[6.61755900497576,46.32652629038054],"type":"Point"},"id":97},{"type":"Feature","properties":{"name":"Col de Terramont","country":"France","region":"Haute-Savoie"},"geometry":{"coordinates":[6.488549653697589,46.245772985876926],"type":"Point"},"id":98},{"type":"Feature","properties":{"name":"Col de Cou","country":"France","region":"Haute-Savoie"},"geometry":{"coordinates":[6.454002643509256,46.26240745315181],"type":"Point"},"id":99},{"type":"Feature","properties":{"name":"Col des Moises","country":"France","region":"Haute-Savoie"},"geometry":{"coordinates":[6.467882148854699,46.278847197533224],"type":"Point"},"id":100},{"type":"Feature","properties":{"name":"Col du Feu","country":"France","region":"Haute-Savoie"},"geometry":{"coordinates":[6.50927415617079,46.29440911023977],"type":"Point"},"id":101},{"type":"Feature","properties":{"name":"Col de Saxel","country":"France","region":"Haute-Savoie"},"geometry":{"coordinates":[6.397749276153746,46.24773821342188],"type":"Point"},"id":102},{"type":"Feature","properties":{"name":"Passo del Predil","country":"Italy","region":"Friuli"},"geometry":{"coordinates":[13.577447716594406,46.418550765178],"type":"Point"},"id":103}]}